,City,Cloudiness,Country,Date,Humidity,Lat,Lng,Max Temp,Wind Speed
0,busselton,89,AU,1570315431,71,-33.64,115.35,52.0,6.33
1,punta arenas,75,CL,1570315431,65,-53.16,-70.91,46.4,10.29
2,chapais,1,CA,1570315431,57,49.78,-74.86,48.2,3.36
3,albany,20,US,1570315432,70,42.65,-73.75,55.4,4.7
4,hermanus,65,ZA,1570315432,92,-34.42,19.24,57.0,11.72
5,rizhao,97,CN,1570315432,54,35.43,119.46,53.84,6.13
6,geraldton,90,CA,1570315433,75,49.72,-86.95,46.4,13.87
7,saint john,5,CA,1570315433,57,45.28,-66.06,50.0,5.82
8,provideniya,100,RU,1570315433,92,64.42,-173.23,31.2,6.58
9,rikitea,100,PF,1570315433,79,-23.12,-134.97,71.19,20.94
10,ushuaia,0,AR,1570315230,65,-54.81,-68.31,41.0,17.22
11,bonthe,100,SL,1570315434,89,7.53,-12.5,77.49,5.93
12,puerto ayora,0,EC,1570315434,64,-0.74,-90.35,75.2,21.92
13,mataura,90,NZ,1570315217,71,-46.19,168.86,52.0,3.0
14,buala,4,SB,1570315434,68,-8.15,159.59,84.04,3.51
15,cabra,53,ES,1570315435,56,37.47,-4.43,70.0,0.47
16,saskylakh,60,RU,1570315435,92,71.97,114.09,13.68,3.36
17,severo-kurilsk,100,RU,1570315435,93,50.68,156.12,42.81,29.28
18,cobija,75,BR,1570315435,94,-11.02,-68.77,75.2,6.93
19,pacific grove,1,US,1570315436,23,36.62,-121.92,86.0,9.17
20,portland,1,US,1570315198,54,43.66,-70.25,53.6,6.93
21,desaguadero,88,PE,1570315436,77,-16.56,-69.04,39.87,6.69
22,matay,0,EG,1570315436,57,28.42,30.79,70.72,10.51
23,bambous virieux,40,MU,1570315437,94,-20.34,57.76,72.0,5.82
24,bredasdorp,38,ZA,1570315437,72,-34.53,20.04,60.8,1.12
25,klaksvik,94,FO,1570315437,81,62.23,-6.59,50.0,34.45
26,haines junction,95,CA,1570315438,85,60.75,-137.51,32.91,4.12
27,kidal,100,ML,1570315438,26,18.44,1.41,90.4,9.08
28,astoria,75,US,1570315438,72,46.19,-123.83,62.6,6.93
29,tiksi,99,RU,1570315439,92,71.64,128.87,18.43,4.83
30,vidisha,100,IN,1570315439,83,23.52,77.8,73.39,2.19
31,kailua,75,US,1570315439,65,21.39,-157.74,87.8,9.17
32,mahebourg,40,MU,1570315439,94,-20.41,57.7,72.0,5.82
33,cape town,0,ZA,1570315274,72,-33.93,18.42,59.0,4.7
34,rawson,84,AR,1570315440,35,-43.3,-65.11,55.06,9.73
35,ranot,100,TH,1570315440,84,7.78,100.32,76.74,4.7
36,bluff,0,AU,1570315440,40,-23.58,149.07,77.1,2.91
37,castro,90,CL,1570315440,71,-42.48,-73.76,50.0,8.05
38,georgetown,75,GY,1570315441,78,6.8,-58.16,82.4,6.93
39,guerrero negro,0,MX,1570315441,71,27.97,-114.04,70.29,13.47
40,talnakh,90,RU,1570315441,95,69.49,88.39,32.0,6.71
41,atuona,14,PF,1570315442,73,-9.8,-139.03,80.35,17.78
42,carnarvon,0,ZA,1570315442,11,-30.97,22.13,64.01,8.25
43,acari,42,BR,1570315442,68,-6.44,-36.64,75.1,25.05
44,hobart,75,AU,1570315423,71,-42.88,147.33,55.99,2.24
45,cayenne,0,GF,1570315443,88,4.94,-52.33,78.8,2.24
46,baykit,96,RU,1570315443,89,61.68,96.39,27.33,8.7
47,shelburne,1,CA,1570315443,62,44.08,-80.2,53.6,11.41
48,tomatlan,29,MX,1570315444,80,19.93,-105.25,82.39,10.36
49,jamestown,0,AU,1570315213,51,-33.21,138.6,65.94,16.11
50,port-gentil,75,GA,1570315444,88,-0.72,8.78,78.8,12.75
51,thunder bay,90,CA,1570315290,93,48.41,-89.26,48.99,12.75
52,rovnoye,100,RU,1570315445,49,50.78,46.06,58.93,14.2
53,bluefield,90,US,1570315445,62,37.27,-81.22,60.8,8.05
54,sumbe,100,AO,1570315445,96,-11.2,13.84,71.55,6.22
55,angoram,92,PG,1570315446,76,-4.06,144.07,82.24,3.87
56,arraial do cabo,0,BR,1570315446,78,-22.97,-42.02,72.94,19.35
57,sitges,40,ES,1570315446,88,41.24,1.82,70.0,3.11
58,pierre,20,US,1570315446,38,44.37,-100.35,62.01,21.92
59,iqaluit,75,CA,1570315446,74,63.75,-68.52,33.8,8.05
60,vaini,90,IN,1570315447,94,15.34,74.49,73.86,1.66
61,yar-sale,100,RU,1570315447,97,66.83,70.83,37.91,16.71
62,port alfred,0,ZA,1570315447,94,-33.59,26.89,61.0,3.06
63,dikson,8,RU,1570315447,73,73.51,80.55,22.88,13.18
64,gat,20,SN,1570315448,88,14.69,-16.54,78.8,5.82
65,constitucion,75,MX,1570315448,29,23.99,-104.67,78.01,6.93
66,kavieng,14,PG,1570315448,68,-2.57,150.8,83.92,6.02
67,manokwari,96,ID,1570315372,69,-0.87,134.08,79.2,2.71
68,nanuque,31,BR,1570315448,86,-17.84,-40.35,69.55,7.76
69,thompson,90,CA,1570315449,87,55.74,-97.86,44.6,2.24
70,yokadouma,6,CM,1570315449,97,3.52,15.05,68.31,1.32
71,barrow,3,AR,1570315449,91,-38.31,-60.23,41.69,6.02
72,acajutla,40,SV,1570315449,70,13.59,-89.83,84.2,8.05
73,asuncion,90,PY,1570315450,93,-25.3,-57.63,64.4,6.93
74,vanavara,99,RU,1570315450,92,60.35,102.28,30.42,7.0
75,aklavik,75,CA,1570315450,41,68.22,-135.01,41.0,17.22
76,kungurtug,19,RU,1570315451,59,50.6,97.53,29.56,2.68
77,nouadhibou,0,MR,1570315451,88,20.93,-17.03,68.0,16.11
78,deputatskiy,100,RU,1570315451,85,69.3,139.9,12.67,2.37
79,kavaratti,76,IN,1570315451,67,10.57,72.64,81.67,0.87
80,indramayu,98,ID,1570315452,56,-4.05,103.78,67.7,4.0
81,aswan,0,EG,1570315452,15,24.09,32.9,84.85,13.94
82,sao joao da barra,0,BR,1570315452,82,-21.64,-41.05,70.11,1.74
83,kloulklubed,75,PW,1570315452,88,7.04,134.26,80.6,4.7
84,antalaha,22,MG,1570315452,98,-14.9,50.28,64.62,3.18
85,coihaique,75,CL,1570315453,57,-45.58,-72.07,48.2,6.93
86,williston,1,US,1570315453,50,48.15,-103.62,60.8,23.04
87,malaya serdoba,100,RU,1570315453,82,52.47,44.96,56.76,14.41
88,husavik,100,CA,1570315453,93,50.56,-96.99,45.0,8.99
89,russkiy kameshkir,100,RU,1570315453,85,52.86,46.09,54.88,10.67
90,concepcion del oro,95,MX,1570315454,35,24.63,-101.42,72.92,5.37
91,richards bay,2,ZA,1570315454,88,-28.77,32.06,69.99,21.74
92,superior,1,US,1570315454,14,39.95,-105.17,69.01,9.17
93,victoria,75,BN,1570315454,78,5.28,115.24,80.6,4.7
94,saldanha,50,PT,1570315455,70,41.42,-6.55,56.76,4.36
95,hilo,20,US,1570315455,58,19.71,-155.08,87.8,9.17
96,burgersdorp,0,ZA,1570315455,10,-30.99,26.32,53.64,3.2
97,san nicolas,6,PH,1570315455,83,16.07,120.76,75.49,5.71
98,loreto,100,PY,1570315455,94,-23.27,-57.32,64.15,5.7
99,tasiilaq,100,GL,1570315456,65,65.61,-37.64,44.6,27.51
100,harer,90,US,1570315456,52,42.19,-111.17,55.0,9.17
101,safipur,40,IN,1570315456,94,26.74,80.34,75.2,3.36
102,ribeira grande,17,PT,1570315456,93,38.52,-28.7,71.75,21.36
103,mar del plata,71,AR,1570315272,37,-46.43,-67.52,52.35,5.66
104,carbonia,0,IT,1570315457,82,39.17,8.53,66.99,4.7
105,upernavik,100,GL,1570315457,98,72.79,-56.15,32.98,5.84
106,banamba,37,ML,1570315457,65,13.55,-7.45,79.56,9.44
107,olds,40,CA,1570315457,35,51.79,-114.11,55.4,13.87
108,lompoc,1,US,1570315458,31,34.64,-120.46,84.2,12.75
109,maceio,40,BR,1570315458,88,-9.67,-35.74,73.4,11.41
110,sassandra,97,CI,1570315458,90,4.95,-6.09,75.51,5.94
111,hofn,100,IS,1570315459,99,64.25,-15.21,39.51,11.3
112,hithadhoo,100,MV,1570315459,71,-0.6,73.08,81.74,4.65
113,east london,0,ZA,1570315321,57,-33.02,27.91,63.47,3.49
114,calabozo,83,VE,1570315460,85,8.92,-67.43,77.62,3.89
115,taltal,0,CL,1570315351,80,-25.41,-70.49,52.53,3.53
116,faya,20,SA,1570315460,42,18.39,42.45,69.8,4.7
117,bereda,75,ES,1570315461,87,43.27,-7.54,64.0,4.7
118,andra,93,RU,1570315461,86,62.52,65.89,49.29,11.24
119,ende,0,ID,1570315461,80,-8.84,121.65,77.74,2.58
120,caravelas,0,BR,1570315461,81,-17.73,-39.27,74.29,11.41
121,isiro,100,CD,1570315462,97,2.77,27.62,67.57,1.45
122,kaitangata,84,NZ,1570315462,57,-46.28,169.85,53.01,11.01
123,harper,1,US,1570315462,31,30.3,-99.24,91.4,5.82
124,port elizabeth,20,US,1570315462,58,39.31,-74.98,61.0,6.93
125,duldurga,100,RU,1570315463,55,50.67,113.59,40.86,10.38
126,salinas,0,US,1570315463,14,36.67,-121.66,86.0,11.41
127,grand gaube,40,MU,1570315463,94,-20.01,57.66,72.0,5.82
128,gerash,1,IR,1570315464,84,27.67,54.14,73.51,8.61
129,lieksa,79,FI,1570315464,95,63.32,30.02,26.61,3.81
130,butaritari,37,KI,1570315464,63,3.07,172.79,85.03,4.97
131,toamasina,75,MG,1570315465,94,-18.17,49.38,73.4,6.93
132,yellowknife,75,CA,1570315465,80,62.45,-114.38,41.0,6.93
133,faanui,60,PF,1570315465,74,-16.48,-151.75,79.58,11.83
134,tuktoyaktuk,90,CA,1570315465,93,69.44,-133.03,35.6,21.92
135,ponta do sol,22,BR,1570315466,53,-20.63,-46.0,74.31,12.17
136,srednekolymsk,10,RU,1570315466,75,67.46,153.71,21.8,3.94
137,shunyi,100,CN,1570315466,93,40.13,116.65,60.01,2.24
138,ancud,90,CL,1570315466,71,-41.87,-73.83,50.0,8.05
139,praia da vitoria,40,PT,1570315467,88,38.73,-27.07,73.4,19.68
140,fare,63,PF,1570315467,74,-16.7,-151.02,79.06,11.21
141,somerset,1,US,1570315184,66,41.77,-71.13,54.0,5.73
142,salinopolis,2,BR,1570315467,79,-0.61,-47.36,81.6,15.55
143,tocopilla,0,CL,1570315467,43,-22.09,-70.2,49.36,3.02
144,lebu,75,ET,1570315468,77,8.96,38.73,59.0,4.7
145,san cristobal,77,HN,1570315468,87,14.68,-86.92,71.35,4.12
146,adrar,0,DZ,1570315468,15,27.87,-0.29,77.0,14.99
147,muisne,75,EC,1570315468,78,0.61,-80.02,80.6,13.87
148,bafq,0,IR,1570315469,35,31.6,55.4,50.28,1.88
149,hamilton,75,CA,1570315219,76,43.26,-79.87,57.0,18.34
150,cidreira,100,BR,1570315469,89,-30.17,-50.22,59.85,7.0
151,seoul,1,KR,1570315469,71,37.57,126.98,57.2,3.36
152,chuy,100,UY,1570315470,81,-33.69,-53.46,53.21,9.75
153,nuuk,75,GL,1570315470,86,64.17,-51.74,37.4,13.87
154,loei,12,TH,1570315470,92,17.49,101.72,69.28,2.24
155,coahuayana,12,MX,1570315471,82,18.62,-100.35,77.91,1.68
156,maroantsetra,86,MG,1570315471,99,-15.43,49.74,65.49,3.09
157,severnoye,98,RU,1570315471,45,54.09,52.54,52.85,10.89
158,kruisfontein,0,ZA,1570315471,90,-34.0,24.73,57.89,13.53
159,rodionovo-nesvetayskaya,20,RU,1570315471,77,47.61,39.7,68.0,11.18
160,tuatapere,67,NZ,1570315472,71,-46.13,167.69,52.0,3.0
161,saint george,20,GR,1570315472,59,39.45,22.34,62.6,5.08
162,souillac,90,FR,1570315472,87,45.6,-0.6,63.0,4.7
163,padang,99,ID,1570315472,82,-0.92,100.36,78.37,13.98
164,nemuro,65,JP,1570315473,59,43.32,145.57,53.21,10.74
165,ilulissat,68,GL,1570315473,86,69.22,-51.1,37.4,6.93
166,lata,98,IN,1570315473,49,30.78,78.62,31.9,3.57
167,thinadhoo,99,MV,1570315473,72,0.53,72.93,81.43,6.64
168,petatlan,20,MX,1570315474,62,17.52,-101.27,89.6,9.17
169,cherskiy,100,RU,1570315474,93,68.75,161.3,21.67,12.37
170,beira,75,ES,1570315474,87,43.2,-8.36,64.0,4.7
171,sayyan,62,YE,1570315474,73,15.17,44.32,68.2,2.19
172,batsfjord,100,NO,1570315474,87,70.63,29.72,41.35,12.33
173,leningradskiy,100,RU,1570315475,96,69.38,178.42,33.09,33.31
174,kenai,90,US,1570315475,42,60.55,-151.26,50.0,14.99
175,chokurdakh,99,RU,1570315475,84,70.62,147.9,20.25,11.92
176,port blair,97,IN,1570315475,67,11.67,92.75,82.32,4.05
177,cururupu,34,BR,1570315476,92,-1.82,-44.87,73.82,2.86
178,kapaa,90,US,1570315476,74,22.08,-159.32,84.2,11.41
179,vila,0,IT,1570315476,87,45.18,8.4,60.01,5.82
180,kahului,90,US,1570315476,65,20.89,-156.47,87.8,9.17
181,saint-philippe,1,CA,1570315477,70,45.36,-73.48,52.0,5.95
182,auki,91,NG,1570315477,92,12.18,6.51,72.43,4.43
183,hailin,0,CN,1570315477,49,44.57,129.38,40.72,3.65
184,sabang,0,PH,1570315478,94,13.8,121.11,75.99,3.85
185,isangel,75,VU,1570315478,69,-19.55,169.27,78.8,5.82
186,garmsar,0,IR,1570315478,54,35.22,52.34,47.99,2.24
187,moen,20,BE,1570315478,81,50.77,3.4,52.0,6.93
188,avarua,100,CK,1570315479,53,-21.21,-159.78,73.4,8.05
189,torbay,40,CA,1570315479,86,47.66,-52.73,39.99,12.75
190,perumpavur,75,IN,1570315479,100,10.13,76.48,75.2,2.15
191,yongan,99,CN,1570315479,50,39.7,113.69,49.83,5.77
192,el dorado,40,TT,1570315480,83,10.65,-61.37,82.99,11.41
193,santa rosalia,40,IT,1570315480,73,38.07,13.27,73.99,19.46
194,hambantota,20,LK,1570315480,100,6.12,81.12,75.2,2.24
195,kudahuvadhoo,98,MV,1570315480,73,2.67,72.89,81.99,8.68
196,norman wells,75,CA,1570315480,70,65.28,-126.83,44.6,2.24
197,kindu,11,CD,1570315481,96,-2.95,25.92,69.37,2.28
198,lagoa,0,PT,1570315481,68,37.14,-8.45,66.2,8.05
199,ossora,84,RU,1570315481,66,59.24,163.07,39.4,19.39
200,tiarei,40,PF,1570315482,69,-17.53,-149.33,82.4,16.11
201,katsuura,75,JP,1570315482,88,33.93,134.5,69.8,2.24
202,odesskoye,64,RU,1570315482,70,54.21,72.97,51.09,5.19
203,hasaki,75,JP,1570315482,88,35.73,140.83,70.0,10.29
204,broome,54,GB,1570315483,87,52.47,1.45,55.99,5.82
205,sturgeon falls,75,CA,1570315483,67,46.36,-79.93,53.01,11.41
206,neryungri,99,RU,1570315483,83,56.66,124.71,30.89,4.11
207,ripollet,90,ES,1570315484,82,41.5,2.16,70.0,3.2
208,jutai,73,BR,1570315484,96,-1.71,-47.89,73.78,2.21
209,kodiak,1,US,1570315484,52,39.95,-94.76,71.6,12.75
210,port hardy,40,CA,1570315334,82,50.7,-127.42,55.4,3.36
211,soto,0,AR,1570315484,51,-32.81,-61.4,62.6,6.93
212,poykovskiy,0,RU,1570315485,93,61.23,73.33,51.8,8.95
213,airai,1,TL,1570315485,32,-8.93,125.41,76.66,6.37
214,nouakchott,0,MR,1570315485,88,18.08,-15.98,80.6,9.17
215,poum,22,MK,1570315485,91,41.28,20.71,42.86,0.69
216,corn island,54,NI,1570315485,71,12.17,-83.04,84.93,9.53
217,ilinskiy,75,RU,1570315486,87,55.62,38.12,45.0,11.18
218,new norfolk,75,AU,1570315486,71,-42.78,147.06,55.99,2.24
219,suibara,75,JP,1570315486,88,37.83,139.23,64.4,16.11
220,sao felix do xingu,31,BR,1570315486,88,-6.64,-51.99,73.26,2.06
221,ixtapa,40,MX,1570315487,74,20.71,-105.21,87.8,10.29
222,ust-maya,73,RU,1570315487,79,60.42,134.54,28.86,4.7
223,dubno,100,UA,1570315487,93,50.42,25.75,39.2,2.24
224,nanortalik,68,GL,1570315487,80,60.14,-45.24,41.33,4.05
225,guardiagrele,40,IT,1570315488,93,42.2,14.22,60.01,2.24
226,almaznyy,20,RU,1570315488,77,48.03,40.04,68.0,11.18
227,shakawe,38,BW,1570315488,46,-18.36,21.84,69.41,4.45
228,huai thalaeng,40,TH,1570315488,100,15.0,102.65,80.01,6.08
229,vao,88,EE,1570315489,77,59.1,26.19,36.9,5.97
230,qaanaaq,100,GL,1570315489,72,77.48,-69.36,22.95,4.52
231,gryfino,0,PL,1570315489,93,53.25,14.49,41.0,3.36
232,klin,90,RU,1570315489,86,56.34,36.74,39.2,11.18
233,longyearbyen,75,NO,1570315490,74,78.22,15.63,37.4,23.04
234,sitka,0,US,1570315490,35,37.17,-99.65,72.0,10.0
235,tullow,75,IE,1570315490,93,52.8,-6.74,55.4,12.75
236,coquimbo,0,CL,1570315491,71,-29.95,-71.34,57.2,12.75
237,nikolskoye,0,RU,1570315491,92,59.7,30.79,33.01,4.47
238,san vicente,20,EC,1570315491,78,-0.59,-80.41,77.0,13.87
239,huai yot,100,TH,1570315491,90,7.79,99.63,74.86,0.76
240,shimoda,40,JP,1570315492,88,34.7,138.93,73.99,5.82
241,japura,98,ID,1570315492,83,-0.42,102.29,74.25,1.57
242,henties bay,4,NA,1570315492,92,-22.12,14.28,56.74,9.57
243,krasnyy chikoy,97,RU,1570315493,76,50.36,108.75,32.62,4.63
244,la ronge,90,CA,1570315493,87,55.1,-105.3,48.2,10.29
245,fort frances,90,CA,1570315493,93,48.61,-93.4,46.99,5.82
246,barranco,8,BR,1570315493,97,-20.59,-41.2,59.15,4.97
247,guanhaes,3,BR,1570315494,91,-18.77,-42.93,63.31,3.18
248,marawi,4,PH,1570315494,85,8.0,124.29,75.0,5.99
249,bathsheba,20,BB,1570315490,78,13.22,-59.52,82.4,13.87
250,guadalupe y calvo,100,MX,1570315495,93,26.09,-106.96,61.99,0.27
251,bethel,75,US,1570315495,93,60.79,-161.76,41.0,12.75
252,port lincoln,27,AU,1570315495,87,-34.72,135.86,57.87,15.77
253,harlingen,90,NL,1570315222,87,53.18,5.41,53.6,8.05
254,cabo san lucas,20,MX,1570315438,62,22.89,-109.91,89.01,9.17
255,sao filipe,8,CV,1570315496,81,14.9,-24.5,77.67,12.44
256,pisco,75,PE,1570315496,30,-13.71,-76.2,71.6,23.04
257,khuzhir,100,RU,1570315496,96,53.19,107.35,30.91,12.75
258,kaeo,18,NZ,1570315496,89,-35.1,173.78,69.01,8.52
259,ila,0,NO,1570315497,74,63.43,10.37,35.6,6.93
260,fort morgan,1,US,1570315497,11,40.25,-103.8,66.2,4.7
261,tambovka,100,RU,1570315497,49,47.32,47.38,59.08,12.26
262,petropavlovsk-kamchatskiy,90,RU,1570315497,100,53.05,158.65,33.8,4.47
263,yamada,75,JP,1570315498,93,36.58,137.08,64.4,6.93
264,tiznit,0,MA,1570315498,71,29.7,-9.73,71.35,7.11
265,kirs,49,RU,1570315498,96,59.34,52.24,34.44,3.71
266,gidam,19,IN,1570315499,93,18.98,81.4,70.35,1.9
267,drexel heights,1,US,1570315499,15,32.14,-111.03,91.99,9.17
268,tougue,92,GN,1570315499,91,11.45,-11.68,69.14,1.28
269,berlevag,100,NO,1570315499,86,70.86,29.09,41.92,17.13
270,kayes,31,ML,1570315500,53,14.44,-11.44,85.59,7.87
271,gorontalo,0,ID,1570315361,72,0.54,123.06,81.04,1.3
272,kharan,96,PK,1570315500,54,28.58,65.42,71.35,4.81
273,bari,0,IT,1570315500,87,41.13,16.86,60.01,4.7
274,hudiksvall,34,SE,1570315500,89,61.73,17.1,23.0,3.76
275,lavrentiya,100,RU,1570315501,96,65.58,-170.99,33.66,23.06
276,havelock,90,US,1570315501,53,34.88,-76.9,75.2,17.22
277,nishihara,75,JP,1570315501,83,35.74,139.53,75.0,14.99
278,omsukchan,0,RU,1570315502,74,62.53,155.8,14.37,0.71
279,suleja,77,NG,1570315502,95,9.18,7.18,74.02,4.33
280,angoche,0,MZ,1570315502,85,-16.23,39.91,73.6,3.83
281,rognan,75,NO,1570315502,70,67.1,15.4,44.6,9.17
282,buraydah,0,SA,1570315503,35,26.33,43.97,84.2,5.82
283,oxford,1,US,1570315442,51,33.61,-85.83,86.0,3.36
284,alekseyevskaya,87,RU,1570315503,65,45.77,40.15,68.31,16.73
285,matamoros,20,US,1570315293,55,25.87,-97.51,91.4,13.87
286,magdalena,40,PH,1570315503,94,14.2,121.43,79.0,4.7
287,chimbote,85,PE,1570315504,92,-9.08,-78.59,60.9,15.12
288,suntar,100,RU,1570315505,96,62.16,117.65,37.28,5.99
289,changli,100,CN,1570315505,93,30.54,105.42,67.12,3.88
290,san patricio,100,PY,1570315506,96,-26.98,-56.83,60.12,7.09
291,tadpatri,100,IN,1570315506,83,14.92,78.02,77.62,1.31
292,vila velha,40,BR,1570315506,65,-3.71,-38.6,80.6,12.75
293,lucapa,35,AO,1570315507,93,-8.42,20.74,66.85,4.29
294,sarakhs,0,TM,1570315507,50,36.54,61.16,53.6,2.24
295,aasiaat,100,GL,1570315507,95,68.71,-52.87,34.78,19.01
296,moron,100,HT,1570315507,81,18.56,-74.26,80.55,8.34
297,tessalit,100,ML,1570315508,12,20.2,1.01,87.05,5.54
298,te anau,44,NZ,1570315508,71,-45.41,167.72,44.26,2.13
299,loukhi,30,RU,1570315509,93,66.08,33.04,29.04,5.61
300,alpena,90,US,1570315509,76,45.06,-83.43,55.4,11.41
301,tawang,88,BT,1570315509,86,27.59,91.87,50.01,4.29
302,west wendover,1,US,1570315509,37,40.74,-114.07,53.6,5.82
303,baruun-urt,0,MN,1570315510,45,46.68,113.28,36.56,8.34
304,halifax,5,CA,1570315510,65,44.65,-63.58,50.0,9.17
305,tombouctou,0,ML,1570315510,21,16.77,-3.01,92.13,5.66
306,khatanga,0,RU,1570315510,89,71.98,102.47,17.1,6.98
307,jaguariaiva,30,BR,1570315511,63,-24.25,-49.71,68.01,1.54
308,vostok,0,RU,1570315511,49,46.45,135.83,44.91,5.06
309,brasilia de minas,98,BR,1570315492,57,-16.21,-44.43,74.04,14.07
310,ostrovnoy,100,RU,1570315511,80,68.05,39.51,33.99,17.16
311,manaus,20,BR,1570315215,78,-3.13,-59.98,82.4,2.24
312,yeppoon,0,AU,1570315512,68,-23.13,150.74,71.6,1.12
313,sorong,48,ID,1570315512,76,-0.86,131.25,82.08,6.06
314,espanola,100,CA,1570315512,58,46.27,-81.77,52.0,5.01
315,fort nelson,75,CA,1570315512,41,58.81,-122.69,57.2,16.11
316,shaghat,40,AM,1570315513,55,39.57,45.91,64.4,6.93
317,los llanos de aridane,90,ES,1570315513,78,28.66,-17.92,73.4,11.41
318,clyde river,20,CA,1570315513,63,70.47,-68.59,26.6,6.93
319,nantucket,1,US,1570315398,62,41.28,-70.1,51.8,3.36
320,athabasca,93,CA,1570315504,75,54.72,-113.29,46.57,8.25
321,atar,0,MR,1570315514,10,20.52,-13.05,92.2,3.87
322,inuvik,75,CA,1570315514,41,68.36,-133.71,41.0,17.22
323,saint anthony,75,US,1570315514,52,43.97,-111.68,50.0,4.7
324,necochea,0,AR,1570315514,91,-38.55,-58.74,46.99,1.99
325,barrhead,40,CA,1570315515,46,54.12,-114.4,53.6,14.99
326,pangnirtung,20,CA,1570315515,50,66.15,-65.72,28.4,14.99
327,severomorsk,75,RU,1570315515,93,69.07,33.42,33.8,5.12
328,panguipulli,0,CL,1570315515,62,-39.64,-72.33,51.8,9.17
329,najran,0,SA,1570315516,22,17.54,44.22,78.8,1.53
330,ikare,98,NG,1570315516,98,7.49,5.23,69.36,1.86
331,salalah,40,OM,1570315516,78,17.01,54.1,80.6,6.93
332,benjamin constant,20,BR,1570315516,70,-4.38,-70.03,84.2,2.24
333,hauterive,1,CA,1570315517,81,49.18,-68.27,48.2,4.7
334,ortona,52,IT,1570315517,93,42.35,14.4,60.01,2.24
335,nelson bay,66,AU,1570315517,77,-32.72,152.14,68.0,6.93
336,mwinilunga,22,ZM,1570315517,57,-11.73,24.43,64.3,5.23
337,opelousas,1,US,1570315518,49,30.53,-92.08,91.99,3.98
338,shitkino,100,RU,1570315518,94,56.37,98.35,35.28,6.04
339,progreso,0,UY,1570315518,76,-34.68,-56.22,55.99,5.82
340,aksu,0,KZ,1570315518,93,52.04,76.93,39.2,4.47
341,yenagoa,70,NG,1570315519,96,4.92,6.26,74.36,1.03
342,fairbanks,90,US,1570315251,86,64.84,-147.72,35.6,9.17
343,komsomolskiy,100,RU,1570315519,98,67.55,63.78,33.12,2.63
344,pasighat,38,IN,1570315519,95,28.06,95.33,65.36,2.8
345,irtyshskiy,42,RU,1570315519,84,58.33,68.13,48.37,8.68
346,sojitra,0,IN,1570315520,88,22.61,72.68,77.0,3.36
347,crailsheim,40,DE,1570315520,93,49.14,10.07,46.99,4.7
348,sur,45,OM,1570315521,55,22.57,59.53,81.6,17.51
349,sinnamary,0,GF,1570315521,79,5.38,-52.96,81.85,13.33
350,kichera,80,RU,1570315521,76,55.93,110.1,26.82,3.56
351,pontes e lacerda,94,BR,1570315521,93,-15.23,-59.33,73.15,2.8
352,avera,90,US,1570315522,69,33.19,-82.53,78.8,11.41
353,douglas,90,US,1570315522,93,58.28,-134.39,53.6,13.87
354,benguela,100,AO,1570315522,92,-12.58,13.4,71.16,6.16
355,maldonado,67,UY,1570315522,69,-34.91,-54.96,54.51,5.68
356,rocha,92,UY,1570315523,94,-34.48,-54.34,45.65,2.89
357,college,90,US,1570315339,86,64.86,-147.8,35.6,10.29
358,ishigaki,20,JP,1570315523,83,24.34,124.16,77.0,17.22
359,oksfjord,75,NO,1570315524,80,70.24,22.35,41.0,23.04
360,lagoa seca,40,BR,1570315524,78,-7.16,-35.85,73.4,16.11
361,tarko-sale,100,RU,1570315524,93,64.92,77.78,37.0,19.15
362,ust-tsilma,96,RU,1570315524,94,65.44,52.15,29.43,4.74
363,karratha,0,AU,1570315525,10,-20.74,116.85,93.13,11.25
364,shenjiamen,91,CN,1570315525,73,29.96,122.3,69.7,12.08
365,vrangel,0,RU,1570315525,50,42.73,133.08,49.86,3.04
366,el carmen,90,AR,1570315525,63,-24.39,-65.26,60.8,6.93
367,nguru,98,NG,1570315526,66,12.88,10.45,79.74,5.97
368,vardo,90,US,1570315526,48,39.62,-77.74,62.6,12.75
369,sao paulo de olivenca,97,BR,1570315526,76,-3.38,-68.87,79.17,2.23
370,teguise,40,ES,1570315526,73,29.06,-13.56,73.4,14.99
371,okhotsk,1,RU,1570315527,46,59.36,143.24,29.16,14.61
372,cerritos,1,US,1570315527,31,33.86,-118.05,86.0,11.41
373,bealanana,40,MG,1570315528,91,-14.54,48.75,60.7,5.06
374,lazaro cardenas,40,MX,1570315528,54,28.39,-105.62,80.6,4.0
375,keningau,75,MY,1570315528,88,5.33,116.16,75.2,6.93
376,saint-augustin,20,CA,1570315528,57,45.63,-73.98,51.8,4.7
377,kununurra,1,AU,1570315528,65,-15.77,128.74,77.0,2.24
378,wanning,75,AT,1570315529,93,48.64,13.53,45.0,1.12
379,shanghai,0,CN,1570315244,68,31.23,121.49,73.0,11.18
380,garowe,2,SO,1570315529,72,8.41,48.48,76.48,12.17
381,namatanai,19,PG,1570315529,78,-3.66,152.44,80.91,8.99
382,nioaque,83,BR,1570315530,87,-21.16,-55.83,68.4,10.6
383,bosaso,0,SO,1570315530,71,11.28,49.18,84.64,6.24
384,grand-santi,88,GF,1570315530,68,4.27,-54.38,80.17,3.18
385,hobyo,0,SO,1570315531,87,5.35,48.53,77.78,13.42
386,ondo,100,NG,1570315531,97,7.1,4.83,71.82,1.45
387,cervo,48,BR,1570315531,51,-22.19,-46.24,70.99,6.26
388,nome,40,US,1570315531,52,30.04,-94.42,90.0,0.51
389,katherine,0,AU,1570315532,53,-14.47,132.26,77.0,3.36
390,codrington,67,AU,1570315532,64,-28.95,153.24,69.01,4.23
391,oranjemund,2,ZA,1570315532,91,-28.55,16.43,57.04,8.61
392,kabinda,3,CD,1570315532,80,-6.14,24.49,70.24,1.3
393,san quintin,20,PH,1570315533,78,17.54,120.52,78.52,3.11
394,yichang,99,CN,1570315533,96,30.77,111.32,54.54,2.71
395,ternate,40,PH,1570315533,94,14.29,120.72,79.0,4.7
396,rundu,6,NA,1570315534,23,-17.91,19.77,82.4,5.82
397,sobolevo,100,RU,1570315534,81,54.43,31.9,36.07,11.52
398,luwuk,47,ID,1570315534,92,-0.95,122.79,66.75,3.85
399,lahaina,90,US,1570315534,65,20.87,-156.68,87.8,9.17
400,sao sebastiao,64,BR,1570315535,79,-3.15,-58.36,78.37,3.58
401,jaragua do sul,75,BR,1570315535,88,-26.49,-49.07,71.6,11.41
402,dingle,77,PH,1570315535,83,11.0,122.67,80.01,6.93
403,gaziantep,0,TR,1570315535,42,37.06,37.38,69.8,12.75
404,esperance,90,AU,1570315536,100,-33.86,121.89,51.8,3.36
405,rokytne,100,UA,1570315536,94,51.27,27.23,42.86,6.31
406,jinchang,100,CN,1570315536,85,38.52,102.19,39.78,3.87
407,tema,90,GH,1570315537,88,5.66,-0.01,78.8,11.41
408,amapa,51,HN,1570315537,91,15.09,-87.97,73.68,2.95
409,ust-nera,74,RU,1570315537,87,64.57,143.24,7.35,3.94
410,weener,83,DE,1570315537,93,53.16,7.35,48.0,5.82
411,puri,76,ID,1570315538,61,-7.54,112.45,79.35,14.56
412,maningrida,6,AU,1570315538,42,-12.05,134.23,84.67,8.28
413,batemans bay,100,AU,1570315538,84,-35.71,150.18,62.01,4.0
414,aykhal,90,RU,1570315538,100,65.95,111.51,24.8,6.71
415,alofi,52,NU,1570315538,61,-19.06,-169.92,77.0,17.22
416,north bend,1,US,1570315539,68,43.41,-124.22,64.99,12.75
417,rio gallegos,0,AR,1570315539,54,-51.62,-69.22,53.6,3.36
418,jumla,81,NP,1570315539,81,29.28,82.18,46.26,1.48
419,pevek,100,RU,1570315540,81,69.7,170.27,29.0,16.75
420,sohag,0,EG,1570315540,19,26.55,31.7,80.6,9.17
421,lorengau,7,PG,1570315540,65,-2.02,147.27,84.69,4.21
422,tigil,99,RU,1570315540,59,57.8,158.67,39.53,16.4
423,santander,100,PH,1570315541,86,9.42,123.33,77.06,4.97
424,itarema,30,BR,1570315541,71,-2.92,-39.92,76.84,11.27
425,ciudad bolivar,1,VE,1570315541,63,8.12,-63.55,82.05,3.96
426,sola,87,TZ,1570315541,67,-3.17,33.8,68.78,8.48
427,laguna,75,BZ,1570315542,74,16.17,-88.94,86.0,6.93
428,barabai,61,ID,1570315283,64,-2.59,115.38,83.29,0.85
429,warrnambool,74,AU,1570315542,71,-38.38,142.48,61.0,5.99
430,bhuj,0,IN,1570315542,76,23.25,69.67,79.99,11.41
431,abu samrah,0,SY,1570315542,53,35.3,37.18,64.48,6.98
432,vestmanna,98,FO,1570315543,81,62.16,-7.17,50.0,34.45
433,dutse,94,NG,1570315543,76,11.76,9.34,74.88,4.14
434,humaita,75,AR,1570315543,71,-24.93,-65.37,60.8,3.36
435,gejiu,3,CN,1570315543,91,23.36,103.16,58.75,2.13
436,puerto baquerizo moreno,75,EC,1570315543,78,-0.9,-89.6,71.6,17.22
437,monrovia,75,LR,1570315544,94,6.33,-10.8,77.0,5.48
438,arlit,94,NE,1570315544,14,18.74,7.39,91.42,3.24
439,tabou,100,CI,1570315544,94,4.42,-7.36,74.36,4.12
440,morant bay,90,JM,1570315545,88,17.88,-76.41,78.8,10.29
441,carnot,70,CF,1570315545,94,4.94,15.87,67.36,0.31
442,ulladulla,100,AU,1570315545,93,-35.36,150.48,59.0,8.05
443,mehamn,100,NO,1570315545,80,71.03,27.85,39.62,16.43
444,hokitika,3,NZ,1570315545,68,-42.72,170.96,52.08,6.37
445,hurricane,1,US,1570315546,7,37.18,-113.29,79.0,9.17
446,sukagawa,75,JP,1570315546,100,37.29,140.32,64.99,3.36
447,ures,0,MX,1570315546,26,30.73,-112.95,96.01,5.01
448,poli,77,CM,1570315546,95,8.48,13.24,69.79,1.72
449,soure,0,PT,1570315547,87,40.06,-8.63,60.8,2.24
450,beringovskiy,0,RU,1570315547,43,63.05,179.32,31.84,18.9
451,flinders,94,AU,1570315547,93,-34.58,150.85,64.0,8.05
452,hastings,78,NZ,1570315547,68,-39.64,176.84,49.23,5.21
453,evensk,2,RU,1570315548,51,61.92,159.24,31.84,8.39
454,taiobeiras,8,BR,1570315548,72,-15.81,-42.23,67.56,10.27
455,xiongyue,83,CN,1570315548,45,40.18,122.12,52.72,8.1
456,erdenet,35,MN,1570315549,53,49.03,104.04,34.11,5.1
457,tsogni,100,GA,1570315549,89,-2.79,10.1,77.04,13.15
458,sarangani,77,PH,1570315549,69,5.4,125.46,83.18,5.74
459,devils lake,90,US,1570315328,81,48.11,-98.87,48.2,19.46
460,biggar,100,CA,1570315550,79,52.06,-107.98,46.37,17.85
461,manthani,74,IN,1570315550,87,18.65,79.67,73.96,0.76
462,jian,0,IN,1570315550,78,25.65,87.89,76.7,1.29
463,chancay,90,PE,1570315551,87,-11.56,-77.27,60.8,12.75
464,thayetmyo,100,MM,1570315551,97,19.32,95.18,73.08,1.05
465,rosarito,40,CO,1570315551,65,4.91,-75.23,80.6,10.29
466,high level,75,CA,1570315552,62,58.52,-117.13,51.8,6.93
467,yulara,0,AU,1570315552,16,-25.24,130.99,73.4,8.05
468,yanam,83,IN,1570315552,94,16.73,82.22,75.49,4.25
469,madimba,40,CM,1570315553,100,4.42,9.93,77.0,1.92
470,eskisehir,40,TR,1570315553,93,39.78,30.52,55.4,3.36
471,craig,1,US,1570315553,10,40.52,-107.55,62.6,9.17
472,luba,20,PH,1570315553,78,17.32,120.7,78.52,3.11
473,smithers,75,CA,1570315553,43,54.78,-127.17,51.8,16.11
474,worcester,75,GB,1570315554,93,52.19,-2.22,57.0,11.41
475,vanimo,94,PG,1570315554,75,-2.67,141.3,81.25,7.92
476,benghazi,0,LY,1570315554,59,32.12,20.07,74.4,9.37
477,namibe,51,AO,1570315554,82,-15.19,12.15,66.75,13.96
478,troitsko-pechorsk,100,RU,1570315555,83,62.71,56.19,37.71,8.77
479,hami,0,CN,1570315555,34,42.84,93.51,50.58,3.62
480,grindavik,20,IS,1570315555,93,63.84,-22.43,48.2,10.29
481,astana,0,KZ,1570315556,86,51.13,71.43,37.4,8.95
482,obo,98,CF,1570315556,96,5.39,26.49,69.52,2.55
483,viedma,17,AR,1570315556,52,-40.81,-62.99,48.66,14.9
484,tuy hoa,100,VN,1570315556,77,13.08,109.3,80.93,7.99
485,aksarka,100,RU,1570315557,99,66.56,67.8,37.37,7.45
486,dobsice,75,CZ,1570315557,87,48.85,16.08,48.99,13.87
487,nola,40,CF,1570315557,98,3.52,16.05,68.1,0.27
488,kinshasa,75,CD,1570315260,74,-4.32,15.31,80.6,9.17
489,ballina,93,IE,1570315557,94,54.11,-9.15,55.0,5.01
490,watsa,100,CD,1570315558,98,3.04,29.53,63.78,1.68
491,birao,99,CF,1570315558,93,10.3,22.78,70.69,4.68
492,mragowo,0,PL,1570315558,84,53.86,21.31,33.3,6.95
493,milledgeville,90,US,1570315559,65,33.08,-83.23,84.2,13.87
494,sangin,71,AF,1570315559,52,32.07,64.85,61.67,7.0
495,venezuela,100,CU,1570315559,92,21.74,-78.8,74.56,5.01
496,williams lake,75,CA,1570315560,48,52.13,-122.14,51.8,6.93
497,warangal,77,IN,1570315560,88,17.99,79.6,73.78,0.58
498,zhezkazgan,0,KZ,1570315560,29,47.8,67.71,47.41,7.7
499,yarada,75,IN,1570315560,94,17.65,83.27,77.0,2.24
500,canavieiras,0,BR,1570315278,88,-15.68,-38.95,72.06,5.53
501,petauke,0,ZM,1570315561,49,-14.25,31.33,76.66,11.59
502,uthal,90,PK,1570315561,70,25.81,66.62,79.89,4.52
503,narsaq,33,GL,1570315561,32,60.91,-46.05,53.6,9.17
504,luderitz,0,NA,1570315561,82,-26.65,15.16,57.2,9.17
505,orlik,75,PL,1570315562,86,53.95,17.74,39.2,5.82
506,sibolga,100,ID,1570315562,96,1.74,98.78,70.98,1.96
507,ahipara,89,NZ,1570315562,89,-35.17,173.16,69.01,10.16
508,jalu,0,LY,1570315563,67,29.03,21.55,68.24,11.05
509,esmeraldas,0,BR,1570315331,50,-19.76,-44.31,75.2,10.29
510,lubumbashi,22,CD,1570315563,55,-11.66,27.48,67.68,5.99
511,vestmannaeyjar,62,IS,1570315563,87,63.44,-20.27,50.13,15.59
512,vikarabad,75,IN,1570315564,100,17.34,77.9,72.0,4.65
513,nushki,100,PK,1570315564,50,29.55,66.02,66.73,1.72
514,vanderhoof,16,CA,1570315469,47,54.02,-124.02,52.87,8.5
515,yumen,83,CN,1570315564,33,40.29,97.04,44.66,10.63
516,bandarbeyla,12,SO,1570315564,88,9.49,50.81,79.15,9.73
517,havre-saint-pierre,20,CA,1570315347,45,50.23,-63.6,46.4,8.05
518,maraa,79,BR,1570315565,77,-1.83,-65.37,77.83,2.0
519,bulungu,0,CD,1570315565,79,-4.54,18.6,73.73,1.45
520,zakamensk,49,RU,1570315565,64,50.38,103.29,30.96,2.97
521,khilok,100,RU,1570315565,73,51.36,110.46,35.66,6.51
522,khani,40,GE,1570315566,78,41.96,42.96,71.6,6.93
523,lucknow,40,IN,1570315566,94,26.84,80.93,75.2,3.36
524,farkhor,40,TJ,1570315566,67,37.49,69.4,62.6,8.95
525,lufilufi,40,WS,1570315566,59,-13.87,-171.6,89.6,19.46
526,opuwo,50,NA,1570315567,34,-18.06,13.84,66.22,3.42
527,javanrud,0,IR,1570315567,40,34.8,46.49,51.8,2.95
528,swiecie,0,PL,1570315567,86,53.41,18.45,41.0,5.82
529,luau,2,CD,1570315567,75,-10.7,22.23,69.23,2.53
530,bull savanna,100,JM,1570315568,72,17.89,-77.59,81.25,5.75
531,zhangye,100,CN,1570315568,85,38.94,100.46,41.31,3.02
532,ekuvukeni,0,ZA,1570315568,81,-28.47,30.16,61.35,1.86
